20161107:153245.627
$GPGGA,153246.00,6912.4672388,N,04853.5908227,W,1,12,0.96,1272.3322,M,37.2038,M,,*7F
20161107:153246.627
$GPGGA,153247.00,6912.5078436,N,04853.5646089,W,1,12,0.96,1272.0794,M,37.2043,M,,*74
20161107:153247.627
$GPGGA,153248.00,6912.5486492,N,04853.5390433,W,1,12,0.96,1271.6524,M,37.2048,M,,*7C
20161107:153248.628
$GPGGA,153249.00,6912.5896385,N,04853.5140382,W,1,12,0.96,1271.2274,M,37.2053,M,,*7F
20161107:153249.627
$GPGGA,153250.00,6912.6307882,N,04853.4894414,W,1,12,0.96,1270.7047,M,37.2057,M,,*70
20161107:153250.627
$GPGGA,153251.00,6912.6720772,N,04853.4651244,W,1,12,0.96,1270.1889,M,37.2062,M,,*7E
20161107:153251.627
$GPGGA,153252.00,6912.7134986,N,04853.4411001,W,1,12,0.96,1269.7590,M,37.2067,M,,*71
20161107:153252.627
$GPGGA,153253.00,6912.7550685,N,04853.4174229,W,1,11,1.06,1269.4979,M,37.2071,M,,*70
20161107:153253.627
$GPGGA,153254.00,6912.7967351,N,04853.3939437,W,1,11,1.06,1269.3581,M,37.2076,M,,*77
20161107:153254.627
$GPGGA,153255.00,6912.8385204,N,04853.3708412,W,1,11,1.06,1269.3028,M,37.2081,M,,*7B
20161107:153255.627
$GPGGA,153256.00,6912.8804041,N,04853.3479263,W,1,11,1.06,1269.2237,M,37.2085,M,,*75
20161107:153256.627
$GPGGA,153257.00,6912.9223752,N,04853.3251557,W,1,11,1.06,1269.2303,M,37.2090,M,,*71
20161107:153257.629
$GPGGA,153258.00,6912.9644115,N,04853.3024315,W,1,11,1.06,1269.2427,M,37.2095,M,,*7A
20161107:153258.627
$GPGGA,153259.00,6913.0065329,N,04853.2797980,W,1,11,1.06,1269.2521,M,37.2099,M,,*78
20161107:153259.627
$GPGGA,153300.00,6913.0487232,N,04853.2573703,W,1,11,1.06,1269.1990,M,37.2104,M,,*7B
20161107:153300.627
$GPGGA,153301.00,6913.0910024,N,04853.2352999,W,1,11,1.06,1269.2849,M,37.2108,M,,*7E
20161107:153301.627
$GPGGA,153302.00,6913.1333365,N,04853.2134605,W,1,11,1.06,1269.3976,M,37.2113,M,,*7F
20161107:153302.627
$GPGGA,153303.00,6913.1756956,N,04853.1918349,W,1,11,1.06,1269.9591,M,37.2117,M,,*70
20161107:153303.627
$GPGGA,153304.00,6913.2179971,N,04853.1704927,W,1,11,1.06,1271.7160,M,37.2122,M,,*70
20161107:153304.627
$GPGGA,153305.00,6913.2601612,N,04853.1494706,W,1,11,1.06,1274.5126,M,37.2126,M,,*75
20161107:153305.627
$GPGGA,153306.00,6913.3021333,N,04853.1287203,W,1,11,1.06,1277.9100,M,37.2131,M,,*7C
20161107:153306.627
$GPGGA,153307.00,6913.3439135,N,04853.1083605,W,1,11,1.06,1281.5196,M,37.2135,M,,*7E
20161107:153307.640
$GPGGA,153308.00,6913.3855271,N,04853.0883950,W,1,11,1.06,1284.7660,M,37.2139,M,,*77
20161107:153308.627
$GPGGA,153309.00,6913.4270016,N,04853.0686364,W,1,11,1.06,1287.3387,M,37.2144,M,,*78
20161107:153309.627
$GPGGA,153310.00,6913.4683885,N,04853.0490069,W,1,11,1.06,1289.1910,M,37.2148,M,,*75
20161107:153310.627
$GPGGA,153311.00,6913.5097325,N,04853.0295794,W,1,11,1.06,1290.4984,M,37.2152,M,,*7A
20161107:153311.627
$GPGGA,153312.00,6913.5510512,N,04853.0101892,W,1,11,1.06,1291.3980,M,37.2156,M,,*70
20161107:153312.627
$GPGGA,153313.00,6913.5923262,N,04852.9906727,W,1,11,1.06,1292.1502,M,37.2160,M,,*79
20161107:153313.627
$GPGGA,153314.00,6913.6335542,N,04852.9709766,W,1,11,1.06,1293.4701,M,37.2165,M,,*71
20161107:153314.627
$GPGGA,153315.00,6913.6747269,N,04852.9515025,W,1,11,1.06,1295.3712,M,37.2169,M,,*7F
20161107:153315.627
$GPGGA,153316.00,6913.7157758,N,04852.9320584,W,1,11,1.06,1297.8602,M,37.2173,M,,*71
20161107:153316.627
$GPGGA,153317.00,6913.7566590,N,04852.9125157,W,1,11,1.06,1301.0072,M,37.2177,M,,*7E
20161107:153317.627
$GPGGA,153318.00,6913.7973721,N,04852.8930328,W,1,11,1.06,1304.5206,M,37.2182,M,,*7D
20161107:153318.627
$GPGGA,153319.00,6913.8379090,N,04852.8735261,W,1,11,1.06,1308.0151,M,37.2186,M,,*75
20161107:153319.627
$GPGGA,153320.00,6913.8782734,N,04852.8539417,W,1,11,1.06,1311.4104,M,37.2190,M,,*74
20161107:153320.627
$GPGGA,153321.00,6913.9184807,N,04852.8343247,W,1,11,1.06,1314.6621,M,37.2194,M,,*70
20161107:153321.627
$GPGGA,153322.00,6913.9585654,N,04852.8148284,W,1,11,1.06,1317.7926,M,37.2198,M,,*7E
20161107:153322.627
$GPGGA,153323.00,6913.9985366,N,04852.7954898,W,1,11,1.06,1320.8402,M,37.2202,M,,*7A
20161107:153323.627
$GPGGA,153324.00,6914.0383950,N,04852.7762264,W,1,11,1.06,1323.8111,M,37.2206,M,,*72
20161107:153324.627
$GPGGA,153325.00,6914.0781607,N,04852.7572391,W,1,11,1.06,1326.7406,M,37.2210,M,,*7E
20161107:153325.627
$GPGGA,153326.00,6914.1178398,N,04852.7385804,W,1,11,1.06,1329.7496,M,37.2215,M,,*75
20161107:153326.627
$GPGGA,153327.00,6914.1574188,N,04852.7200444,W,1,11,1.06,1332.6907,M,37.2219,M,,*79
20161107:153327.627
$GPGGA,153328.00,6914.1968857,N,04852.7013498,W,1,11,1.06,1335.3565,M,37.2223,M,,*7E
20161107:153328.627
$GPGGA,153329.00,6914.2362350,N,04852.6821156,W,1,11,1.06,1337.6424,M,37.2227,M,,*78
20161107:153329.627
$GPGGA,153330.00,6914.2754663,N,04852.6617934,W,1,11,1.06,1339.0767,M,37.2231,M,,*78
20161107:153330.627
$GPGGA,153331.00,6914.3145518,N,04852.6398526,W,1,10,1.06,1340.2126,M,37.2235,M,,*76
20161107:153331.627
$GPGGA,153332.00,6914.3534906,N,04852.6157167,W,1,10,1.06,1340.3533,M,37.2240,M,,*77
20161107:153332.627
$GPGGA,153333.00,6914.3922178,N,04852.5890283,W,1,10,1.06,1340.3378,M,37.2244,M,,*79
20161107:153333.627
$GPGGA,153334.00,6914.4306682,N,04852.5595255,W,1,10,1.06,1340.3814,M,37.2249,M,,*78
20161107:153334.627
$GPGGA,153335.00,6914.4687819,N,04852.5270991,W,1,10,1.06,1340.5871,M,37.2255,M,,*7E
20161107:153335.627
$GPGGA,153336.00,6914.5065167,N,04852.4917930,W,1,10,1.06,1341.0248,M,37.2260,M,,*74
20161107:153336.627
$GPGGA,153337.00,6914.5438240,N,04852.4536503,W,1,10,1.06,1341.6798,M,37.2266,M,,*74
20161107:153337.627
$GPGGA,153338.00,6914.5806714,N,04852.4127667,W,1,10,1.06,1342.4868,M,37.2272,M,,*7F
20161107:153338.627
$GPGGA,153339.00,6914.6170323,N,04852.3691464,W,1,10,1.06,1343.4879,M,37.2279,M,,*73
20161107:153339.627
$GPGGA,153340.00,6914.6527853,N,04852.3228051,W,1,10,1.06,1344.2851,M,37.2285,M,,*7B
20161107:153340.627
$GPGGA,153341.00,6914.6879230,N,04852.2736374,W,1,10,1.06,1345.1867,M,37.2292,M,,*7D
20161107:153341.627
$GPGGA,153342.00,6914.7223910,N,04852.2216739,W,1,10,1.06,1346.1748,M,37.2299,M,,*73
20161107:153342.627
$GPGGA,153343.00,6914.7561431,N,04852.1669428,W,1,10,1.06,1347.2593,M,37.2307,M,,*71
20161107:153343.627
$GPGGA,153344.00,6914.7891666,N,04852.1095178,W,1,10,1.06,1348.3467,M,37.2314,M,,*77
20161107:153344.627
$GPGGA,153345.00,6914.8213739,N,04852.0495858,W,1,10,1.06,1349.0318,M,37.2322,M,,*74
20161107:153345.627
$GPGGA,153346.00,6914.8528559,N,04851.9873012,W,1,10,1.06,1349.7545,M,37.2330,M,,*7E
20161107:153346.627
$GPGGA,153347.00,6914.8836642,N,04851.9229103,W,1,10,1.06,1350.2861,M,37.2338,M,,*7E
20161107:153347.627
$GPGGA,153348.00,6914.9139036,N,04851.8566675,W,1,10,1.06,1350.8377,M,37.2347,M,,*76
20161107:153348.627
$GPGGA,153349.00,6914.9436124,N,04851.7889001,W,1,10,1.06,1350.9971,M,37.2355,M,,*77
20161107:153349.627
$GPGGA,153350.00,6914.9728690,N,04851.7198345,W,1,10,1.06,1350.7953,M,37.2364,M,,*7D
20161107:153350.627
$GPGGA,153351.00,6915.0017545,N,04851.6494824,W,1,10,1.06,1350.5602,M,37.2373,M,,*7F
20161107:153351.627
$GPGGA,153352.00,6915.0302053,N,04851.5777729,W,1,10,1.06,1350.3044,M,37.2382,M,,*7A
20161107:153352.627
$GPGGA,153353.00,6915.0581329,N,04851.5046178,W,1,10,1.06,1349.8618,M,37.2391,M,,*71
20161107:153353.627
$GPGGA,153354.00,6915.0854454,N,04851.4299156,W,1,10,1.06,1349.3618,M,37.2400,M,,*77
20161107:153354.627
$GPGGA,153355.00,6915.1120994,N,04851.3534894,W,1,11,1.06,1348.4907,M,37.2409,M,,*73
20161107:153355.627
$GPGGA,153356.00,6915.1379375,N,04851.2752683,W,1,11,1.06,1348.1741,M,37.2418,M,,*79
20161107:153356.627
$GPGGA,153357.00,6915.1628615,N,04851.1952066,W,1,11,1.06,1347.9761,M,37.2428,M,,*7C
20161107:153357.627
$GPGGA,153358.00,6915.1867229,N,04851.1132468,W,1,11,1.06,1347.8477,M,37.2438,M,,*7D
20161107:153358.627
$GPGGA,153359.00,6915.2093756,N,04851.0293593,W,1,11,1.06,1347.8573,M,37.2448,M,,*7F
20161107:153359.627
$GPGGA,153400.00,6915.2307034,N,04850.9435495,W,1,11,1.06,1347.9512,M,37.2458,M,,*7B
20161107:153400.627
$GPGGA,153401.00,6915.2506015,N,04850.8558966,W,1,11,1.06,1348.2261,M,37.2468,M,,*70
20161107:153401.627
$GPGGA,153402.00,6915.2690336,N,04850.7665793,W,1,11,1.06,1348.6240,M,37.2478,M,,*7D
20161107:153402.627
$GPGGA,153403.00,6915.2859565,N,04850.6757508,W,1,11,1.06,1349.1365,M,37.2488,M,,*79
20161107:153403.627
$GPGGA,153404.00,6915.3013695,N,04850.5836280,W,1,11,1.06,1349.7241,M,37.2499,M,,*78
20161107:153404.627
$GPGGA,153405.00,6915.3153190,N,04850.4902073,W,1,10,1.08,1349.9129,M,37.2509,M,,*73
20161107:153405.627
$GPGGA,153406.00,6915.3277462,N,04850.3961637,W,1,10,1.08,1350.6043,M,37.2520,M,,*78
20161107:153406.627
$GPGGA,153407.00,6915.3387691,N,04850.3013684,W,1,10,1.08,1351.1315,M,37.2530,M,,*7A
20161107:153407.627
$GPGGA,153408.00,6915.3484587,N,04850.2060195,W,1,10,1.08,1351.4425,M,37.2540,M,,*71
20161107:153408.627
$GPGGA,153409.00,6915.3568492,N,04850.1101741,W,1,10,1.08,1351.4540,M,37.2551,M,,*7E
20161107:153409.627
$GPGGA,153410.00,6915.3639142,N,04850.0141113,W,1,10,1.08,1351.4536,M,37.2561,M,,*7F
20161107:153410.627
$GPGGA,153411.00,6915.3696388,N,04849.9178828,W,1,11,1.06,1351.6675,M,37.2572,M,,*7E
20161107:153411.627
$GPGGA,153412.00,6915.3740492,N,04849.8214105,W,1,11,1.06,1351.5340,M,37.2582,M,,*7A
20161107:153412.627
$GPGGA,153413.00,6915.3770819,N,04849.7249877,W,1,11,1.06,1351.5137,M,37.2592,M,,*7F
20161107:153413.627
$GPGGA,153414.00,6915.3787281,N,04849.6287364,W,1,11,1.06,1351.6190,M,37.2603,M,,*74
20161107:153414.627
$GPGGA,153415.00,6915.3789959,N,04849.5328050,W,1,11,1.06,1351.8791,M,37.2613,M,,*7E
20161107:153415.627
$GPGGA,153416.00,6915.3779302,N,04849.4373235,W,1,11,1.06,1352.1507,M,37.2623,M,,*7C
20161107:153416.627
$GPGGA,153417.00,6915.3755660,N,04849.3424252,W,1,11,1.06,1352.3929,M,37.2633,M,,*72
20161107:153417.627
$GPGGA,153418.00,6915.3719020,N,04849.2482446,W,1,11,1.06,1352.6326,M,37.2642,M,,*7F
20161107:153418.627
$GPGGA,153419.00,6915.3669275,N,04849.1549177,W,1,11,1.06,1352.8507,M,37.2652,M,,*72
20161107:153419.627
$GPGGA,153420.00,6915.3606776,N,04849.0625577,W,1,11,1.06,1353.0370,M,37.2661,M,,*74
20161107:153420.627
$GPGGA,153421.00,6915.3531794,N,04848.9712467,W,1,11,1.06,1353.1295,M,37.2671,M,,*79
20161107:153421.627
$GPGGA,153422.00,6915.3444688,N,04848.8810465,W,1,11,1.06,1353.0956,M,37.2680,M,,*70
20161107:153422.627
$GPGGA,153423.00,6915.3345801,N,04848.7920334,W,1,11,1.06,1352.9623,M,37.2689,M,,*7A
20161107:153423.627
$GPGGA,153424.00,6915.3235583,N,04848.7042749,W,1,11,1.06,1352.7671,M,37.2697,M,,*79
20161107:153424.627
$GPGGA,153425.00,6915.3114145,N,04848.6178713,W,1,11,1.06,1352.4644,M,37.2706,M,,*7C
20161107:153425.627
$GPGGA,153426.00,6915.2981291,N,04848.5329469,W,1,11,1.06,1352.1049,M,37.2714,M,,*76
20161107:153426.627
$GPGGA,153427.00,6915.2836885,N,04848.4496415,W,1,11,1.06,1351.7052,M,37.2722,M,,*76
20161107:153427.627
$GPGGA,153428.00,6915.2680739,N,04848.3681391,W,1,11,1.06,1351.3565,M,37.2730,M,,*7C
20161107:153428.627
$GPGGA,153429.00,6915.2513328,N,04848.2885227,W,1,11,1.06,1351.0762,M,37.2738,M,,*79
20161107:153429.627
$GPGGA,153430.00,6915.2335239,N,04848.2108532,W,1,11,1.06,1351.0022,M,37.2745,M,,*74
20161107:153430.627
$GPGGA,153431.00,6915.2147324,N,04848.1351241,W,1,11,1.06,1351.0597,M,37.2752,M,,*7C
20161107:153431.627
$GPGGA,153432.00,6915.1950518,N,04848.0612960,W,1,11,1.06,1351.1327,M,37.2759,M,,*77
20161107:153432.627
$GPGGA,153433.00,6915.1745505,N,04847.9893780,W,1,11,1.06,1351.1578,M,37.2766,M,,*71
20161107:153433.627
$GPGGA,153434.00,6915.1532425,N,04847.9194206,W,1,11,1.06,1351.1515,M,37.2772,M,,*7C
20161107:153434.627
$GPGGA,153435.00,6915.1311796,N,04847.8513343,W,1,11,1.06,1351.0683,M,37.2778,M,,*7C
20161107:153435.627
$GPGGA,153436.00,6915.1083944,N,04847.7850031,W,1,11,1.06,1350.9840,M,37.2784,M,,*7F
20161107:153436.627
$GPGGA,153437.00,6915.0849749,N,04847.7201775,W,1,11,1.06,1350.8828,M,37.2790,M,,*71
20161107:153437.627
$GPGGA,153438.00,6915.0610264,N,04847.6565190,W,1,11,1.06,1350.7783,M,37.2796,M,,*78
20161107:153438.627
$GPGGA,153439.00,6915.0366586,N,04847.5937049,W,1,11,1.06,1350.6437,M,37.2801,M,,*77
20161107:153439.627
$GPGGA,153440.00,6915.0119722,N,04847.5314443,W,1,11,1.06,1350.4820,M,37.2807,M,,*74
20161107:153440.627
$GPGGA,153441.00,6914.9870560,N,04847.4694271,W,1,11,1.06,1350.3161,M,37.2812,M,,*7B
20161107:153441.627
$GPGGA,153442.00,6914.9619782,N,04847.4074709,W,1,11,1.06,1350.1277,M,37.2817,M,,*76
20161107:153442.627
$GPGGA,153443.00,6914.9367503,N,04847.3454669,W,1,11,1.06,1349.8491,M,37.2823,M,,*7E
20161107:153443.627
$GPGGA,153444.00,6914.9114524,N,04847.2832927,W,1,11,1.06,1349.5596,M,37.2828,M,,*72
20161107:153444.627
$GPGGA,153445.00,6914.8860319,N,04847.2209910,W,1,11,1.06,1349.1327,M,37.2834,M,,*73
20161107:153445.627
$GPGGA,153446.00,6914.8605360,N,04847.1585177,W,1,11,1.06,1348.7244,M,37.2839,M,,*74
20161107:153446.627
$GPGGA,153447.00,6914.8349376,N,04847.0959481,W,1,11,1.06,1348.3777,M,37.2844,M,,*74
20161107:153447.627
$GPGGA,153448.00,6914.8092322,N,04847.0333289,W,1,11,1.06,1348.1159,M,37.2850,M,,*7A
20161107:153448.627
$GPGGA,153449.00,6914.7834374,N,04846.9707352,W,1,11,1.06,1348.2932,M,37.2855,M,,*7C
20161107:153449.627
$GPGGA,153450.00,6914.7575852,N,04846.9083344,W,1,11,1.06,1349.4719,M,37.2861,M,,*78
20161107:153450.627
$GPGGA,153451.00,6914.7317366,N,04846.8462703,W,1,11,1.06,1351.5520,M,37.2866,M,,*7D
20161107:153451.627
$GPGGA,153452.00,6914.7059127,N,04846.7846200,W,1,11,1.06,1354.1568,M,37.2871,M,,*78
20161107:153452.627
$GPGGA,153453.00,6914.6801460,N,04846.7233828,W,1,11,1.06,1357.0430,M,37.2877,M,,*7B
20161107:153453.627
$GPGGA,153454.00,6914.6544283,N,04846.6625783,W,1,11,1.06,1360.1161,M,37.2882,M,,*79
20161107:153454.627
$GPGGA,153455.00,6914.6287705,N,04846.6021985,W,1,11,1.06,1363.3182,M,37.2887,M,,*78
20161107:153455.627
$GPGGA,153456.00,6914.6031682,N,04846.5421514,W,1,11,1.06,1366.5127,M,37.2892,M,,*71
20161107:153456.627
$GPGGA,153457.00,6914.5776076,N,04846.4822806,W,1,11,1.06,1369.0123,M,37.2898,M,,*7E
20161107:153457.627
$GPGGA,153458.00,6914.5520368,N,04846.4223653,W,1,11,1.06,1370.2267,M,37.2903,M,,*73
20161107:153458.627
$GPGGA,153459.00,6914.5264289,N,04846.3622256,W,1,11,1.06,1370.3578,M,37.2908,M,,*7B
20161107:153459.627
$GPGGA,153500.00,6914.5007369,N,04846.3017522,W,1,11,1.06,1369.5089,M,37.2913,M,,*75
20161107:153500.627
$GPGGA,153501.00,6914.4749231,N,04846.2409369,W,1,11,1.06,1368.0366,M,37.2919,M,,*7B
20161107:153501.627
$GPGGA,153502.00,6914.4490144,N,04846.1796032,W,1,11,1.06,1366.4203,M,37.2924,M,,*73
20161107:153502.627
$GPGGA,153503.00,6914.4229814,N,04846.1178196,W,1,11,1.06,1364.8856,M,37.2929,M,,*7A
20161107:153503.627
$GPGGA,153504.00,6914.3968601,N,04846.0556688,W,1,11,1.06,1363.6901,M,37.2935,M,,*78
20161107:153504.627
$GPGGA,153505.00,6914.3706182,N,04845.9933966,W,1,11,1.06,1362.8533,M,37.2940,M,,*79
20161107:153505.627
$GPGGA,153506.00,6914.3441763,N,04845.9314602,W,1,11,1.06,1362.3082,M,37.2946,M,,*73
20161107:153506.627
$GPGGA,153507.00,6914.3173914,N,04845.8704921,W,1,11,1.06,1362.0568,M,37.2951,M,,*76
20161107:153507.627
$GPGGA,153508.00,6914.2901010,N,04845.8112151,W,1,11,1.06,1362.0041,M,37.2956,M,,*7F
20161107:153508.627
$GPGGA,153509.00,6914.2621305,N,04845.7544643,W,1,11,1.06,1362.0374,M,37.2961,M,,*79
20161107:153509.627
$GPGGA,153510.00,6914.2333528,N,04845.7012196,W,1,11,1.06,1362.1651,M,37.2965,M,,*70
20161107:153510.627
$GPGGA,153511.00,6914.2036749,N,04845.6523632,W,1,11,1.06,1362.5493,M,37.2969,M,,*79
20161107:153511.629
$GPGGA,153512.00,6914.1730911,N,04845.6083614,W,1,12,0.95,1363.2532,M,37.2972,M,,*7E
20161107:153512.628
$GPGGA,153513.00,6914.1417294,N,04845.5694982,W,1,12,0.95,1364.2873,M,37.2975,M,,*74
20161107:153513.627
$GPGGA,153514.00,6914.1097201,N,04845.5355697,W,1,12,0.95,1365.5377,M,37.2977,M,,*7B
20161107:153514.627
$GPGGA,153515.00,6914.0771774,N,04845.5062967,W,1,12,0.95,1366.7411,M,37.2978,M,,*7D
20161107:153515.627
$GPGGA,153516.00,6914.0442035,N,04845.4815104,W,1,12,0.95,1367.8277,M,37.2979,M,,*72
20161107:153516.627
$GPGGA,153517.00,6914.0108367,N,04845.4612516,W,1,12,0.95,1368.7321,M,37.2980,M,,*76
20161107:153517.628
$GPGGA,153518.00,6913.9771160,N,04845.4456533,W,1,12,0.95,1369.5488,M,37.2980,M,,*78
20161107:153518.628
$GPGGA,153519.00,6913.9431013,N,04845.4347921,W,1,12,0.95,1370.2386,M,37.2979,M,,*73
20161107:153519.628
$GPGGA,153520.00,6913.9088487,N,04845.4285894,W,1,12,0.95,1370.8661,M,37.2978,M,,*71
20161107:153520.628
$GPGGA,153521.00,6913.8744327,N,04845.4269409,W,1,12,0.95,1371.4244,M,37.2976,M,,*71
20161107:153521.627
$GPGGA,153522.00,6913.8399204,N,04845.4296872,W,1,12,0.95,1371.8908,M,37.2974,M,,*7B
20161107:153522.627
$GPGGA,153523.00,6913.8053516,N,04845.4366938,W,1,12,0.95,1372.1883,M,37.2971,M,,*77
20161107:153523.627
$GPGGA,153524.00,6913.7707874,N,04845.4479197,W,1,12,0.95,1372.2923,M,37.2968,M,,*74
20161107:153524.628
$GPGGA,153525.00,6913.7362788,N,04845.4634667,W,1,12,0.95,1372.2751,M,37.2965,M,,*7B
20161107:153525.628
$GPGGA,153526.00,6913.7018807,N,04845.4834052,W,1,12,0.95,1372.1742,M,37.2961,M,,*75
20161107:153526.627
$GPGGA,153527.00,6913.6676799,N,04845.5077573,W,1,12,0.95,1372.2023,M,37.2956,M,,*7C
20161107:153527.628
$GPGGA,153528.00,6913.6337425,N,04845.5365033,W,1,12,0.95,1372.2720,M,37.2951,M,,*75
20161107:153528.628
$GPGGA,153529.00,6913.6001346,N,04845.5693615,W,1,12,0.95,1372.4315,M,37.2946,M,,*7C
20161107:153529.628
$GPGGA,153530.00,6913.5669135,N,04845.6060142,W,1,12,0.95,1372.4721,M,37.2940,M,,*70
20161107:153530.628
$GPGGA,153531.00,6913.5341123,N,04845.6461152,W,1,12,0.95,1372.5927,M,37.2934,M,,*77
20161107:153531.628
$GPGGA,153532.00,6913.5017077,N,04845.6890834,W,1,12,0.95,1372.7352,M,37.2927,M,,*77
20161107:153532.628
$GPGGA,153533.00,6913.4696378,N,04845.7343588,W,1,12,0.95,1372.7595,M,37.2920,M,,*70
20161107:153533.627
$GPGGA,153534.00,6913.4378139,N,04845.7812311,W,1,12,0.95,1372.6704,M,37.2913,M,,*77
20161107:153534.627
$GPGGA,153535.00,6913.4061848,N,04845.8291146,W,1,12,0.95,1372.4071,M,37.2906,M,,*7F
20161107:153535.628
$GPGGA,153536.00,6913.3746885,N,04845.8774300,W,1,12,0.95,1371.9182,M,37.2899,M,,*72
20161107:153536.628
$GPGGA,153537.00,6913.3432686,N,04845.9257360,W,1,12,0.95,1371.1992,M,37.2892,M,,*77
20161107:153537.628
$GPGGA,153538.00,6913.3119126,N,04845.9739512,W,1,12,0.95,1370.5002,M,37.2885,M,,*74
20161107:153538.627
$GPGGA,153539.00,6913.2806074,N,04846.0220027,W,1,12,0.95,1369.6074,M,37.2878,M,,*79
20161107:153539.627
$GPGGA,153540.00,6913.2493134,N,04846.0696136,W,1,12,0.95,1368.7384,M,37.2871,M,,*7F
20161107:153540.628
$GPGGA,153541.00,6913.2180176,N,04846.1167317,W,1,12,0.95,1368.1451,M,37.2865,M,,*7A
20161107:153541.628
$GPGGA,153542.00,6913.1867362,N,04846.1634134,W,1,12,0.95,1367.7066,M,37.2858,M,,*78
20161107:153542.628
$GPGGA,153543.00,6913.1555023,N,04846.2096942,W,1,12,0.95,1367.4893,M,37.2851,M,,*7F
20161107:153543.628
$GPGGA,153544.00,6913.1243282,N,04846.2554843,W,1,12,0.95,1367.8485,M,37.2844,M,,*79
20161107:153544.628
$GPGGA,153545.00,6913.0932630,N,04846.3007925,W,1,12,0.95,1368.9713,M,37.2838,M,,*73
20161107:153545.628
$GPGGA,153546.00,6913.0624111,N,04846.3461180,W,1,12,0.95,1370.4584,M,37.2831,M,,*7E
20161107:153546.627
$GPGGA,153547.00,6913.0318218,N,04846.3917964,W,1,12,0.95,1372.0787,M,37.2824,M,,*72
20161107:153547.627
$GPGGA,153548.00,6913.0015281,N,04846.4381164,W,1,12,0.95,1373.6799,M,37.2817,M,,*71
20161107:153548.627
$GPGGA,153549.00,6912.9716017,N,04846.4856515,W,1,12,0.95,1375.1656,M,37.2811,M,,*77
20161107:153549.627
$GPGGA,153550.00,6912.9421059,N,04846.5348176,W,1,12,0.95,1376.6163,M,37.2804,M,,*77
20161107:153550.627
$GPGGA,153551.00,6912.9130634,N,04846.5858085,W,1,12,0.95,1377.9218,M,37.2796,M,,*7C
20161107:153551.628
$GPGGA,153552.00,6912.8844408,N,04846.6386942,W,1,12,0.95,1378.6701,M,37.2789,M,,*73
20161107:153552.628
$GPGGA,153553.00,6912.8562184,N,04846.6936746,W,1,12,0.95,1378.2713,M,37.2782,M,,*7D
20161107:153553.628
$GPGGA,153554.00,6912.8283188,N,04846.7506244,W,1,12,0.95,1376.8803,M,37.2774,M,,*74
20161107:153554.628
$GPGGA,153555.00,6912.8007254,N,04846.8096426,W,1,12,0.95,1375.0877,M,37.2766,M,,*73
20161107:153555.627
$GPGGA,153556.00,6912.7734871,N,04846.8708496,W,1,12,0.95,1373.4179,M,37.2758,M,,*76
20161107:153556.627
$GPGGA,153557.00,6912.7465794,N,04846.9339560,W,1,12,0.95,1372.0087,M,37.2749,M,,*7E
20161107:153557.627
$GPGGA,153558.00,6912.7199814,N,04846.9986396,W,1,12,0.95,1370.7532,M,37.2741,M,,*77
20161107:153558.627
$GPGGA,153559.00,6912.6935917,N,04847.0642826,W,1,12,0.95,1369.6460,M,37.2732,M,,*7F
20161107:153559.628
$GPGGA,153600.00,6912.6672968,N,04847.1304065,W,1,12,0.95,1368.8311,M,37.2724,M,,*74
20161107:153600.628
$GPGGA,153601.00,6912.6410578,N,04847.1967348,W,1,12,0.95,1368.2316,M,37.2715,M,,*72
20161107:153601.628
$GPGGA,153602.00,6912.6148279,N,04847.2630412,W,1,12,0.95,1367.9132,M,37.2706,M,,*7B
20161107:153602.628
$GPGGA,153603.00,6912.5885378,N,04847.3290197,W,1,12,0.95,1367.8090,M,37.2698,M,,*78
20161107:153603.627
$GPGGA,153604.00,6912.5622220,N,04847.3947555,W,1,12,0.95,1368.0038,M,37.2689,M,,*7E
20161107:153604.627
$GPGGA,153605.00,6912.5359077,N,04847.4602669,W,1,12,0.95,1368.3086,M,37.2681,M,,*7D
20161107:153605.627
$GPGGA,153606.00,6912.5095989,N,04847.5254518,W,1,12,0.95,1368.6384,M,37.2672,M,,*7E
20161107:153606.627
$GPGGA,153607.00,6912.4833113,N,04847.5903158,W,1,12,0.95,1369.0656,M,37.2664,M,,*72
20161107:153607.628
$GPGGA,153608.00,6912.4570300,N,04847.6547182,W,1,12,0.95,1369.4316,M,37.2655,M,,*78
20161107:153608.628
$GPGGA,153609.00,6912.4307894,N,04847.7188403,W,1,12,0.95,1369.8808,M,37.2647,M,,*78
20161107:153609.628
$GPGGA,153610.00,6912.4046139,N,04847.7828182,W,1,12,0.95,1370.2084,M,37.2638,M,,*71
20161107:153610.628
$GPGGA,153611.00,6912.3785487,N,04847.8468957,W,1,12,0.95,1370.5386,M,37.2630,M,,*76
20161107:153611.627
$GPGGA,153612.00,6912.3526308,N,04847.9112502,W,1,12,0.95,1370.9554,M,37.2622,M,,*7D
20161107:153612.627
$GPGGA,153613.00,6912.3268470,N,04847.9758453,W,1,12,0.95,1371.2222,M,37.2613,M,,*7A
20161107:153613.628
$GPGGA,153614.00,6912.3011491,N,04848.0405031,W,1,12,0.95,1371.5940,M,37.2605,M,,*7C
20161107:153614.627
$GPGGA,153615.00,6912.2755220,N,04848.1053080,W,1,12,0.95,1371.2690,M,37.2597,M,,*76
20161107:153615.628
$GPGGA,153616.00,6912.2499129,N,04848.1703369,W,1,12,0.95,1369.9868,M,37.2588,M,,*7F
20161107:153616.628
$GPGGA,153617.00,6912.2242616,N,04848.2357099,W,1,12,0.95,1367.9777,M,37.2580,M,,*78
20161107:153617.628
$GPGGA,153618.00,6912.1985804,N,04848.3016793,W,1,12,0.95,1365.4759,M,37.2571,M,,*7E
20161107:153618.628
$GPGGA,153619.00,6912.1728640,N,04848.3683586,W,1,12,0.95,1362.7462,M,37.2563,M,,*78
20161107:153619.627
$GPGGA,153620.00,6912.1471082,N,04848.4356553,W,1,12,0.95,1359.8066,M,37.2554,M,,*74
20161107:153620.627
$GPGGA,153621.00,6912.1213697,N,04848.5037111,W,1,12,0.95,1357.1057,M,37.2545,M,,*77
20161107:153621.628
$GPGGA,153622.00,6912.0957509,N,04848.5726930,W,1,12,0.95,1354.9061,M,37.2537,M,,*7D
20161107:153622.628
$GPGGA,153623.00,6912.0702884,N,04848.6426021,W,1,12,0.95,1353.0876,M,37.2528,M,,*7D
20161107:153623.628
$GPGGA,153624.00,6912.0449211,N,04848.7130116,W,1,12,0.95,1351.3611,M,37.2519,M,,*7A
20161107:153624.628
$GPGGA,153625.00,6912.0196464,N,04848.7838422,W,1,12,0.95,1349.6523,M,37.2510,M,,*7C
20161107:153625.628
$GPGGA,153626.00,6911.9944487,N,04848.8550815,W,1,12,0.95,1347.9596,M,37.2501,M,,*74
20161107:153626.628
$GPGGA,153627.00,6911.9692926,N,04848.9266288,W,1,12,0.95,1346.2421,M,37.2492,M,,*76
20161107:153627.628
$GPGGA,153628.00,6911.9441564,N,04848.9984544,W,1,12,0.95,1344.3558,M,37.2483,M,,*73
20161107:153628.627
$GPGGA,153629.00,6911.9189628,N,04849.0703160,W,1,12,0.95,1342.5069,M,37.2474,M,,*7C
20161107:153629.627
$GPGGA,153630.00,6911.8937158,N,04849.1422660,W,1,12,0.95,1340.6375,M,37.2465,M,,*71
20161107:153630.628
$GPGGA,153631.00,6911.8683927,N,04849.2141568,W,1,12,0.95,1338.6925,M,37.2456,M,,*78
20161107:153631.628
$GPGGA,153632.00,6911.8429951,N,04849.2859802,W,1,12,0.95,1336.9241,M,37.2447,M,,*71
20161107:153632.628
$GPGGA,153633.00,6911.8175262,N,04849.3577313,W,1,12,0.95,1335.1275,M,37.2438,M,,*78
20161107:153633.628
$GPGGA,153634.00,6911.7919954,N,04849.4294813,W,1,12,0.95,1333.2244,M,37.2428,M,,*7C
20161107:153634.628
$GPGGA,153635.00,6911.7663938,N,04849.5012456,W,1,12,0.95,1331.0781,M,37.2419,M,,*7B
20161107:153635.628
$GPGGA,153636.00,6911.7407194,N,04849.5731089,W,1,12,0.95,1328.5638,M,37.2410,M,,*71
20161107:153636.627
$GPGGA,153637.00,6911.7149470,N,04849.6450231,W,1,12,0.95,1325.7727,M,37.2401,M,,*76
20161107:153637.628
$GPGGA,153638.00,6911.6890457,N,04849.7168913,W,1,12,0.95,1322.9202,M,37.2392,M,,*72
20161107:153638.628
$GPGGA,153639.00,6911.6630462,N,04849.7887888,W,1,12,0.95,1320.0257,M,37.2383,M,,*71
20161107:153639.628
$GPGGA,153640.00,6911.6369284,N,04849.8606820,W,1,12,0.95,1317.1576,M,37.2374,M,,*7B
20161107:153640.628
$GPGGA,153641.00,6911.6106962,N,04849.9325687,W,1,12,0.95,1314.3658,M,37.2365,M,,*7A
20161107:153641.628
$GPGGA,153642.00,6911.5843611,N,04850.0045291,W,1,12,0.95,1311.4681,M,37.2356,M,,*78
20161107:153642.628
$GPGGA,153643.00,6911.5579585,N,04850.0766884,W,1,12,0.94,1308.4828,M,37.2347,M,,*7F
20161107:153643.628
$GPGGA,153644.00,6911.5315172,N,04850.1491502,W,1,12,0.94,1305.4495,M,37.2338,M,,*7E
20161107:153644.628
$GPGGA,153645.00,6911.5050864,N,04850.2219733,W,1,12,0.94,1302.7378,M,37.2329,M,,*76
20161107:153645.628
$GPGGA,153646.00,6911.4787599,N,04850.2953080,W,1,12,0.94,1300.6260,M,37.2320,M,,*7E
20161107:153646.627
$GPGGA,153647.00,6911.4526220,N,04850.3692762,W,1,12,0.94,1299.0269,M,37.2311,M,,*77
20161107:153647.628
$GPGGA,153648.00,6911.4267393,N,04850.4439641,W,1,12,0.94,1297.8541,M,37.2301,M,,*7D
20161107:153648.628
$GPGGA,153649.00,6911.4011248,N,04850.5192554,W,1,12,0.94,1296.9280,M,37.2292,M,,*7B
20161107:153649.628
$GPGGA,153650.00,6911.3757489,N,04850.5950888,W,1,12,0.94,1296.0332,M,37.2283,M,,*71
20161107:153650.628
$GPGGA,153651.00,6911.3505757,N,04850.6713045,W,1,12,0.94,1295.0348,M,37.2273,M,,*77
20161107:153651.628
$GPGGA,153652.00,6911.3255762,N,04850.7478228,W,1,12,0.94,1294.0290,M,37.2264,M,,*75
20161107:153652.627
$GPGGA,153653.00,6911.3006926,N,04850.8245570,W,1,12,0.94,1293.0518,M,37.2254,M,,*70
20161107:153653.627
$GPGGA,153654.00,6911.2759045,N,04850.9014019,W,1,12,0.94,1292.1840,M,37.2245,M,,*7A
20161107:153654.628
$GPGGA,153655.00,6911.2512152,N,04850.9783220,W,1,12,0.94,1291.5739,M,37.2236,M,,*72
20161107:153655.628
$GPGGA,153656.00,6911.2266674,N,04851.0553943,W,1,12,0.94,1291.1646,M,37.2226,M,,*73
20161107:153656.628
$GPGGA,153657.00,6911.2022333,N,04851.1325106,W,1,12,0.94,1290.8992,M,37.2217,M,,*75
20161107:153657.628
$GPGGA,153658.00,6911.1779434,N,04851.2097425,W,1,12,0.94,1290.7124,M,37.2208,M,,*79
20161107:153658.628
$GPGGA,153659.00,6911.1538410,N,04851.2872897,W,1,12,0.94,1290.3839,M,37.2198,M,,*74
20161107:153659.628
$GPGGA,153700.00,6911.1299389,N,04851.3653010,W,1,12,0.94,1289.3373,M,37.2189,M,,*74
20161107:153700.628
$GPGGA,153701.00,6911.1062116,N,04851.4438784,W,1,12,0.94,1287.5571,M,37.2179,M,,*76
20161107:153701.628
$GPGGA,153702.00,6911.0826654,N,04851.5231457,W,1,12,0.94,1285.5423,M,37.2170,M,,*73
20161107:153702.628
$GPGGA,153703.00,6911.0592998,N,04851.6031822,W,1,12,0.94,1283.3508,M,37.2160,M,,*79
20161107:153703.628
$GPGGA,153704.00,6911.0360955,N,04851.6839512,W,1,12,0.94,1281.0550,M,37.2151,M,,*74
20161107:153704.628
$GPGGA,153705.00,6911.0130012,N,04851.7651804,W,1,12,0.94,1278.6201,M,37.2141,M,,*71
20161107:153705.628
$GPGGA,153706.00,6910.9900053,N,04851.8466434,W,1,12,0.94,1276.1890,M,37.2131,M,,*7E
20161107:153706.628
$GPGGA,153707.00,6910.9670974,N,04851.9282531,W,1,12,0.94,1273.7877,M,37.2122,M,,*7A
20161107:153707.628
$GPGGA,153708.00,6910.9442089,N,04852.0099094,W,1,12,0.94,1271.4092,M,37.2112,M,,*74
20161107:153708.628
$GPGGA,153709.00,6910.9213099,N,04852.0915704,W,1,12,0.94,1269.1797,M,37.2102,M,,*7A
20161107:153709.627
$GPGGA,153710.00,6910.8983803,N,04852.1731207,W,1,12,0.94,1266.9417,M,37.2093,M,,*70
20161107:153710.628
$GPGGA,153711.00,6910.8754302,N,04852.2545203,W,1,12,0.94,1264.7520,M,37.2083,M,,*71
20161107:153711.628
$GPGGA,153712.00,6910.8524916,N,04852.3358295,W,1,12,0.94,1262.5200,M,37.2073,M,,*72
20161107:153712.628
$GPGGA,153713.00,6910.8296180,N,04852.4171227,W,1,12,0.94,1260.2789,M,37.2064,M,,*7A
20161107:153713.628
$GPGGA,153714.00,6910.8067854,N,04852.4983780,W,1,12,0.94,1257.9319,M,37.2054,M,,*7D
20161107:153714.628
$GPGGA,153715.00,6910.7839800,N,04852.5794971,W,1,12,0.94,1255.5768,M,37.2045,M,,*74
20161107:153715.628
$GPGGA,153716.00,6910.7612276,N,04852.6604186,W,1,12,0.94,1253.2397,M,37.2035,M,,*72
20161107:153716.628
$GPGGA,153717.00,6910.7385643,N,04852.7412191,W,1,12,0.94,1250.8677,M,37.2025,M,,*7B
20161107:153717.627
$GPGGA,153718.00,6910.7159987,N,04852.8219029,W,1,12,0.94,1248.7880,M,37.2016,M,,*70
20161107:153718.628
$GPGGA,153719.00,6910.6935231,N,04852.9022863,W,1,12,0.94,1247.9278,M,37.2007,M,,*75
20161107:153719.628
$GPGGA,153720.00,6910.6711930,N,04852.9821899,W,1,12,0.94,1248.0277,M,37.1997,M,,*79
20161107:153720.628
$GPGGA,153721.00,6910.6490175,N,04853.0614638,W,1,12,0.94,1248.6804,M,37.1988,M,,*78
20161107:153721.628
$GPGGA,153722.00,6910.6270118,N,04853.1400391,W,1,12,0.94,1249.7770,M,37.1979,M,,*7A
20161107:153722.628
$GPGGA,153723.00,6910.6052313,N,04853.2180356,W,1,12,0.94,1250.9207,M,37.1970,M,,*7F
20161107:153723.628
$GPGGA,153724.00,6910.5836091,N,04853.2953187,W,1,12,0.94,1251.9856,M,37.1961,M,,*7F
20161107:153724.628
$GPGGA,153725.00,6910.5621254,N,04853.3719194,W,1,12,0.94,1252.9156,M,37.1952,M,,*74
20161107:153725.628
$GPGGA,153726.00,6910.5408252,N,04853.4480122,W,1,12,0.94,1253.6664,M,37.1943,M,,*79
20161107:153726.628
$GPGGA,153727.00,6910.5197153,N,04853.5236985,W,1,12,0.94,1254.2936,M,37.1934,M,,*7D
20161107:153727.628
$GPGGA,153728.00,6910.4987781,N,04853.5990105,W,1,12,0.94,1254.8694,M,37.1925,M,,*79
20161107:153728.628
$GPGGA,153729.00,6910.4779934,N,04853.6738892,W,1,12,0.94,1255.6530,M,37.1916,M,,*7D
20161107:153729.628
$GPGGA,153730.00,6910.4573652,N,04853.7483478,W,1,12,0.94,1256.6115,M,37.1908,M,,*77
20161107:153730.628
$GPGGA,153731.00,6910.4368983,N,04853.8223961,W,1,12,0.94,1257.6442,M,37.1899,M,,*70
20161107:153731.628
$GPGGA,153732.00,6910.4165381,N,04853.8959395,W,1,12,0.94,1258.5424,M,37.1891,M,,*77
20161107:153732.628
$GPGGA,153733.00,6910.3962647,N,04853.9690101,W,1,12,0.94,1259.0187,M,37.1882,M,,*7F
20161107:153733.628
$GPGGA,153734.00,6910.3760789,N,04854.0417525,W,1,12,0.94,1259.1557,M,37.1874,M,,*77
20161107:153734.628
$GPGGA,153735.00,6910.3559656,N,04854.1142897,W,1,12,0.94,1259.0189,M,37.1865,M,,*7B
20161107:153735.628
$GPGGA,153736.00,6910.3358860,N,04854.1866324,W,1,12,0.94,1258.5474,M,37.1857,M,,*7A
20161107:153736.628
$GPGGA,153737.00,6910.3157886,N,04854.2588282,W,1,12,0.94,1257.3871,M,37.1849,M,,*72
20161107:153737.628
$GPGGA,153738.00,6910.2956651,N,04854.3309838,W,1,12,0.94,1255.7095,M,37.1840,M,,*79
20161107:153738.628
$GPGGA,153739.00,6910.2754656,N,04854.4030755,W,1,12,0.94,1253.7591,M,37.1832,M,,*7B
20161107:153739.628
$GPGGA,153740.00,6910.2551968,N,04854.4751751,W,1,12,0.94,1251.5629,M,37.1824,M,,*73
20161107:153740.628
$GPGGA,153741.00,6910.2348518,N,04854.5472747,W,1,12,0.94,1249.3467,M,37.1815,M,,*76
20161107:153741.629
$GPGGA,153742.00,6910.2143984,N,04854.6192770,W,1,12,0.94,1247.2769,M,37.1807,M,,*78
20161107:153742.628
$GPGGA,153743.00,6910.1938636,N,04854.6912208,W,1,12,0.94,1245.2887,M,37.1799,M,,*77
20161107:153743.628
$GPGGA,153744.00,6910.1732837,N,04854.7632308,W,1,12,0.94,1243.1632,M,37.1790,M,,*7A
20161107:153744.628
$GPGGA,153745.00,6910.1526539,N,04854.8354097,W,1,12,0.94,1240.4888,M,37.1782,M,,*7A
20161107:153745.628
$GPGGA,153746.00,6910.1319480,N,04854.9078250,W,1,12,0.94,1237.5036,M,37.1774,M,,*70
20161107:153746.628
$GPGGA,153747.00,6910.1111649,N,04854.9805542,W,1,12,0.94,1234.4392,M,37.1765,M,,*75
20161107:153747.628
$GPGGA,153748.00,6910.0902907,N,04855.0535399,W,1,12,0.94,1231.3906,M,37.1757,M,,*76
20161107:153748.628
$GPGGA,153749.00,6910.0692849,N,04855.1266063,W,1,12,0.94,1228.4984,M,37.1748,M,,*77
20161107:153749.628
$GPGGA,153750.00,6910.0481533,N,04855.1997411,W,1,12,0.94,1225.7615,M,37.1740,M,,*7A
20161107:153750.628
$GPGGA,153751.00,6910.0268598,N,04855.2728296,W,1,12,0.94,1223.0693,M,37.1732,M,,*71
20161107:153751.629
$GPGGA,153752.00,6910.0054169,N,04855.3458580,W,1,12,0.94,1220.5274,M,37.1723,M,,*7B
20161107:153752.628
$GPGGA,153753.00,6909.9838543,N,04855.4188881,W,1,12,0.94,1218.1585,M,37.1715,M,,*75
20161107:153753.628
$GPGGA,153754.00,6909.9621854,N,04855.4918983,W,1,12,0.94,1215.8712,M,37.1706,M,,*77
20161107:153754.628
$GPGGA,153755.00,6909.9404330,N,04855.5648549,W,1,12,0.94,1213.4528,M,37.1698,M,,*7C
20161107:153755.628
$GPGGA,153756.00,6909.9186157,N,04855.6376999,W,1,12,0.94,1210.9641,M,37.1689,M,,*7B
20161107:153756.628
$GPGGA,153757.00,6909.8967664,N,04855.7104687,W,1,12,0.94,1208.3354,M,37.1681,M,,*77
20161107:153757.628
$GPGGA,153758.00,6909.8749311,N,04855.7832973,W,1,12,0.94,1205.5686,M,37.1673,M,,*79
20161107:153758.627
$GPGGA,153759.00,6909.8531015,N,04855.8562675,W,1,12,0.94,1202.6716,M,37.1664,M,,*76
20161107:153759.628
$GPGGA,153800.00,6909.8312563,N,04855.9294140,W,1,12,0.94,1199.7353,M,37.1656,M,,*7C
20161107:153800.628
$GPGGA,153801.00,6909.8093858,N,04856.0027282,W,1,12,0.94,1196.8108,M,37.1647,M,,*73
20161107:153801.628
$GPGGA,153802.00,6909.7875032,N,04856.0762809,W,1,12,0.94,1193.9374,M,37.1639,M,,*70
20161107:153802.628
$GPGGA,153803.00,6909.7656175,N,04856.1500573,W,1,12,0.94,1191.2716,M,37.1631,M,,*7A
20161107:153803.628
$GPGGA,153804.00,6909.7437868,N,04856.2240767,W,1,12,0.94,1189.2431,M,37.1622,M,,*77
20161107:153804.628
$GPGGA,153805.00,6909.7221185,N,04856.2984843,W,1,12,0.94,1187.8574,M,37.1614,M,,*76
20161107:153805.628
$GPGGA,153806.00,6909.7006374,N,04856.3732736,W,1,12,0.94,1186.8598,M,37.1605,M,,*72
20161107:153806.628
$GPGGA,153807.00,6909.6793561,N,04856.4483837,W,1,12,0.94,1186.0774,M,37.1597,M,,*7B
20161107:153807.629
$GPGGA,153808.00,6909.6582510,N,04856.5237024,W,1,12,0.94,1185.4356,M,37.1588,M,,*7F
20161107:153808.628
$GPGGA,153809.00,6909.6372887,N,04856.5990745,W,1,12,0.94,1184.8947,M,37.1580,M,,*7D
20161107:153809.628
$GPGGA,153810.00,6909.6164197,N,04856.6742665,W,1,12,0.94,1184.6530,M,37.1571,M,,*75
20161107:153810.628
$GPGGA,153811.00,6909.5956211,N,04856.7490022,W,1,12,0.94,1185.1967,M,37.1563,M,,*70
20161107:153811.628
$GPGGA,153812.00,6909.5748769,N,04856.8230579,W,1,12,0.94,1186.3028,M,37.1554,M,,*77
20161107:153812.628
$GPGGA,153813.00,6909.5541780,N,04856.8963132,W,1,12,0.94,1187.4912,M,37.1546,M,,*79
20161107:153813.628
$GPGGA,153814.00,6909.5334771,N,04856.9687378,W,1,12,0.94,1188.4225,M,37.1538,M,,*75
20161107:153814.628
$GPGGA,153815.00,6909.5127708,N,04857.0404562,W,1,12,0.94,1189.0040,M,37.1530,M,,*7A
20161107:153815.628
$GPGGA,153816.00,6909.4920724,N,04857.1116423,W,1,12,0.94,1188.9777,M,37.1522,M,,*72
20161107:153816.628
$GPGGA,153817.00,6909.4713741,N,04857.1824386,W,1,12,0.94,1188.2202,M,37.1514,M,,*77
20161107:153817.628
$GPGGA,153818.00,6909.4506618,N,04857.2530100,W,1,12,0.94,1187.0301,M,37.1506,M,,*78
20161107:153818.628
$GPGGA,153819.00,6909.4299625,N,04857.3235167,W,1,12,0.94,1185.4960,M,37.1498,M,,*79
20161107:153819.628
$GPGGA,153820.00,6909.4092886,N,04857.3940631,W,1,12,0.94,1183.8267,M,37.1490,M,,*7E
20161107:153820.628
$GPGGA,153821.00,6909.3886490,N,04857.4647203,W,1,12,0.94,1182.2149,M,37.1482,M,,*73
20161107:153821.628
$GPGGA,153822.00,6909.3680780,N,04857.5355594,W,1,12,0.94,1180.6948,M,37.1474,M,,*72
20161107:153822.628
$GPGGA,153823.00,6909.3475738,N,04857.6064720,W,1,12,0.94,1179.6867,M,37.1466,M,,*7E
20161107:153823.628
$GPGGA,153824.00,6909.3271549,N,04857.6773367,W,1,12,0.94,1179.3195,M,37.1458,M,,*75
20161107:153824.628
$GPGGA,153825.00,6909.3068678,N,04857.7481535,W,1,12,0.94,1179.3234,M,37.1450,M,,*71
20161107:153825.628
$GPGGA,153826.00,6909.2866756,N,04857.8187024,W,1,12,0.94,1179.4637,M,37.1442,M,,*72
20161107:153826.628
$GPGGA,153827.00,6909.2665839,N,04857.8889293,W,1,12,0.94,1179.9911,M,37.1434,M,,*76
20161107:153827.628
$GPGGA,153828.00,6909.2466241,N,04857.9588796,W,1,12,0.94,1180.7110,M,37.1427,M,,*73
20161107:153828.628
$GPGGA,153829.00,6909.2268128,N,04858.0286160,W,1,12,0.94,1181.5686,M,37.1419,M,,*70
20161107:153829.628
$GPGGA,153830.00,6909.2071929,N,04858.0980908,W,1,12,0.94,1182.9019,M,37.1411,M,,*77
20161107:153830.628
$GPGGA,153831.00,6909.1877510,N,04858.1672277,W,1,12,0.94,1184.4838,M,37.1403,M,,*7E
20161107:153831.628
$GPGGA,153832.00,6909.1684655,N,04858.2359902,W,1,12,0.94,1186.2011,M,37.1396,M,,*77
20161107:153832.628
$GPGGA,153833.00,6909.1493191,N,04858.3044194,W,1,12,0.94,1187.6927,M,37.1388,M,,*72
20161107:153833.628
$GPGGA,153834.00,6909.1302716,N,04858.3725986,W,1,12,0.94,1188.6160,M,37.1381,M,,*75
20161107:153834.628
$GPGGA,153835.00,6909.1112932,N,04858.4406330,W,1,12,0.94,1189.0802,M,37.1373,M,,*7A
20161107:153835.628
$GPGGA,153836.00,6909.0923584,N,04858.5086228,W,1,12,0.94,1189.0215,M,37.1366,M,,*7E
20161107:153836.628
$GPGGA,153837.00,6909.0734568,N,04858.5766636,W,1,12,0.94,1188.4922,M,37.1358,M,,*70
20161107:153837.628
$GPGGA,153838.00,6909.0545903,N,04858.6448770,W,1,12,0.94,1187.7243,M,37.1350,M,,*7D
20161107:153838.628
$GPGGA,153839.00,6909.0357127,N,04858.7132947,W,1,12,0.94,1186.8169,M,37.1343,M,,*73
20161107:153839.628
$GPGGA,153840.00,6909.0167922,N,04858.7819761,W,1,12,0.94,1185.8351,M,37.1335,M,,*70
20161107:153840.628
$GPGGA,153841.00,6908.9977951,N,04858.8508439,W,1,12,0.94,1184.8663,M,37.1328,M,,*71
20161107:153841.628
$GPGGA,153842.00,6908.9787273,N,04858.9197981,W,1,12,0.94,1183.9376,M,37.1320,M,,*7A
20161107:153842.628
$GPGGA,153843.00,6908.9595866,N,04858.9888023,W,1,12,0.94,1183.0335,M,37.1313,M,,*7C
20161107:153843.628
$GPGGA,153844.00,6908.9403849,N,04859.0578187,W,1,12,0.94,1182.1297,M,37.1305,M,,*73
20161107:153844.628
$GPGGA,153845.00,6908.9211169,N,04859.1268003,W,1,12,0.94,1181.2028,M,37.1297,M,,*7A
20161107:153845.628
$GPGGA,153846.00,6908.9017480,N,04859.1956425,W,1,12,0.94,1180.2282,M,37.1290,M,,*7D
20161107:153846.628
$GPGGA,153847.00,6908.8822550,N,04859.2642909,W,1,12,0.94,1179.2000,M,37.1282,M,,*78
20161107:153847.628
$GPGGA,153848.00,6908.8626243,N,04859.3326902,W,1,12,0.94,1178.1607,M,37.1275,M,,*7E
20161107:153848.628
$GPGGA,153849.00,6908.8428429,N,04859.4008292,W,1,12,0.94,1177.1073,M,37.1267,M,,*7A
20161107:153849.628
$GPGGA,153850.00,6908.8229385,N,04859.4686982,W,1,12,0.94,1176.2442,M,37.1260,M,,*7D
20161107:153850.628
$GPGGA,153851.00,6908.8029534,N,04859.5362688,W,1,12,0.94,1175.9269,M,37.1252,M,,*7F
20161107:153851.628
$GPGGA,153852.00,6908.7829345,N,04859.6035374,W,1,12,0.94,1175.9541,M,37.1245,M,,*74
20161107:153852.628
$GPGGA,153853.00,6908.7629298,N,04859.6705691,W,1,12,0.94,1176.2388,M,37.1238,M,,*71
20161107:153853.628
$GPGGA,153854.00,6908.7429850,N,04859.7374214,W,1,10,1.04,1177.4919,M,37.1230,M,,*77
20161107:153854.628
$GPGGA,153855.00,6908.7230275,N,04859.8040980,W,1,11,0.94,1177.8426,M,37.1223,M,,*7E
20161107:153855.628
$GPGGA,153856.00,6908.7031696,N,04859.8707266,W,1,11,0.94,1178.2419,M,37.1216,M,,*7F
20161107:153856.628
$GPGGA,153857.00,6908.6833949,N,04859.9373218,W,1,11,0.94,1178.6384,M,37.1208,M,,*7F
20161107:153857.628
$GPGGA,153858.00,6908.6636939,N,04900.0039376,W,1,11,0.94,1178.9708,M,37.1201,M,,*7A
20161107:153858.628
$GPGGA,153859.00,6908.6440700,N,04900.0706381,W,1,11,0.94,1179.2038,M,37.1194,M,,*7E
20161107:153859.628
$GPGGA,153900.00,6908.6244899,N,04900.1374887,W,1,11,0.94,1179.0008,M,37.1186,M,,*71
20161107:153900.628
$GPGGA,153901.00,6908.6049315,N,04900.2045606,W,1,11,0.94,1178.2363,M,37.1179,M,,*78
20161107:153901.628
$GPGGA,153902.00,6908.5853617,N,04900.2719388,W,1,11,0.94,1177.1619,M,37.1172,M,,*7E
20161107:153902.628
$GPGGA,153903.00,6908.5657872,N,04900.3397280,W,1,11,0.94,1175.7724,M,37.1164,M,,*7E
20161107:153903.628
$GPGGA,153904.00,6908.5462353,N,04900.4080812,W,1,11,0.94,1174.2251,M,37.1157,M,,*75
20161107:153904.628
$GPGGA,153905.00,6908.5267871,N,04900.4772851,W,1,11,0.94,1172.6158,M,37.1149,M,,*76
20161107:153905.628
$GPGGA,153906.00,6908.5075593,N,04900.5476638,W,1,11,0.94,1170.7474,M,37.1142,M,,*71
20161107:153906.628
$GPGGA,153907.00,6908.4886956,N,04900.6196850,W,1,11,0.94,1168.5922,M,37.1134,M,,*7C
20161107:153907.628
$GPGGA,153908.00,6908.4703719,N,04900.6937976,W,1,11,0.94,1166.2236,M,37.1126,M,,*76
20161107:153908.628
$GPGGA,153909.00,6908.4527841,N,04900.7704424,W,1,11,0.94,1163.7665,M,37.1118,M,,*7B
20161107:153909.628
$GPGGA,153910.00,6908.4361225,N,04900.8498749,W,1,11,0.94,1161.4062,M,37.1110,M,,*76
20161107:153910.628
$GPGGA,153911.00,6908.4205236,N,04900.9321743,W,1,11,0.94,1159.2932,M,37.1101,M,,*79
20161107:153911.628
$GPGGA,153912.00,6908.4060718,N,04901.0171966,W,1,11,0.94,1157.4821,M,37.1093,M,,*75
20161107:153912.628
$GPGGA,153913.00,6908.3927558,N,04901.1046292,W,1,11,0.94,1155.9775,M,37.1084,M,,*7C
20161107:153913.628
$GPGGA,153914.00,6908.3804318,N,04901.1939968,W,1,11,0.94,1154.6450,M,37.1075,M,,*72
20161107:153914.628
$GPGGA,153915.00,6908.3689265,N,04901.2848831,W,1,11,0.94,1153.3685,M,37.1066,M,,*70
20161107:153915.628
$GPGGA,153916.00,6908.3580225,N,04901.3769032,W,1,11,0.94,1152.1260,M,37.1058,M,,*7A
20161107:153916.628
$GPGGA,153917.00,6908.3474714,N,04901.4696942,W,1,11,0.94,1150.7854,M,37.1049,M,,*77
20161107:153917.628
$GPGGA,153918.00,6908.3370920,N,04901.5630236,W,1,11,0.94,1149.2150,M,37.1040,M,,*7E
20161107:153918.628
$GPGGA,153919.00,6908.3267675,N,04901.6567472,W,1,11,0.94,1147.6233,M,37.1030,M,,*78
20161107:153919.628
$GPGGA,153920.00,6908.3163794,N,04901.7506974,W,1,11,0.94,1146.1998,M,37.1021,M,,*7A
20161107:153920.628
$GPGGA,153921.00,6908.3058894,N,04901.8447265,W,1,11,0.94,1144.7521,M,37.1012,M,,*77
20161107:153921.628
$GPGGA,153922.00,6908.2953374,N,04901.9386610,W,1,11,0.94,1143.3054,M,37.1003,M,,*7B
20161107:153922.628
$GPGGA,153923.00,6908.2847768,N,04902.0324304,W,1,11,0.94,1141.8212,M,37.0994,M,,*7A
20161107:153923.628
$GPGGA,153924.00,6908.2742585,N,04902.1261323,W,1,11,0.94,1140.2205,M,37.0985,M,,*7F
20161107:153924.628
$GPGGA,153925.00,6908.2638293,N,04902.2198682,W,1,11,0.94,1138.5502,M,37.0976,M,,*7E
20161107:153925.628
$GPGGA,153926.00,6908.2535279,N,04902.3137111,W,1,11,0.94,1137.0804,M,37.0967,M,,*7F
20161107:153926.628
$GPGGA,153927.00,6908.2433996,N,04902.4076527,W,1,11,0.94,1135.9554,M,37.0958,M,,*7E
20161107:153927.628
$GPGGA,153928.00,6908.2335024,N,04902.5016879,W,1,11,0.94,1135.0462,M,37.0950,M,,*74
20161107:153928.630
$GPGGA,153929.00,6908.2238422,N,04902.5957793,W,1,11,0.94,1134.2861,M,37.0941,M,,*70
20161107:153929.628
$GPGGA,153930.00,6908.2143928,N,04902.6898996,W,1,11,0.94,1133.5465,M,37.0932,M,,*76
20161107:153930.628
$GPGGA,153931.00,6908.2051601,N,04902.7840442,W,1,11,0.94,1132.7580,M,37.0923,M,,*78
20161107:153931.628
$GPGGA,153932.00,6908.1961016,N,04902.8781813,W,1,11,0.94,1131.9450,M,37.0914,M,,*72
20161107:153932.628
$GPGGA,153933.00,6908.1872004,N,04902.9722746,W,1,11,0.94,1131.0917,M,37.0905,M,,*73
20161107:153933.628
$GPGGA,153934.00,6908.1784451,N,04903.0663267,W,1,11,0.94,1130.2420,M,37.0896,M,,*7D
20161107:153934.628
$GPGGA,153935.00,6908.1697677,N,04903.1602626,W,1,11,0.94,1129.3522,M,37.0888,M,,*7B
20161107:153935.628
$GPGGA,153936.00,6908.1611251,N,04903.2540430,W,1,11,0.94,1128.4216,M,37.0879,M,,*7D
20161107:153936.628
$GPGGA,153937.00,6908.1524600,N,04903.3476150,W,1,11,0.94,1127.4092,M,37.0870,M,,*77
20161107:153937.628
$GPGGA,153938.00,6908.1437224,N,04903.4409267,W,1,11,0.94,1126.3822,M,37.0862,M,,*77
20161107:153938.628
$GPGGA,153939.00,6908.1349148,N,04903.5339936,W,1,11,0.94,1125.3434,M,37.0853,M,,*71
20161107:153939.628
$GPGGA,153940.00,6908.1260583,N,04903.6268395,W,1,11,0.94,1124.2645,M,37.0844,M,,*71
20161107:153940.628
$GPGGA,153941.00,6908.1171482,N,04903.7195111,W,1,11,0.94,1123.0875,M,37.0836,M,,*70
20161107:153941.628
$GPGGA,153942.00,6908.1081847,N,04903.8120523,W,1,11,0.94,1121.6175,M,37.0827,M,,*71
20161107:153942.628
$GPGGA,153943.00,6908.0991852,N,04903.9045575,W,1,11,0.94,1119.9172,M,37.0819,M,,*73
20161107:153943.628
$GPGGA,153944.00,6908.0901547,N,04903.9970719,W,1,11,0.94,1118.0217,M,37.0810,M,,*72
20161107:153944.628
$GPGGA,153945.00,6908.0810700,N,04904.0896118,W,1,11,0.94,1115.9572,M,37.0801,M,,*73
20161107:153945.629
$GPGGA,153946.00,6908.0719657,N,04904.1822505,W,1,11,0.94,1113.8637,M,37.0793,M,,*72
20161107:153946.628
$GPGGA,153947.00,6908.0628166,N,04904.2749384,W,1,11,0.94,1111.7184,M,37.0784,M,,*7F
20161107:153947.628
$GPGGA,153948.00,6908.0536186,N,04904.3676909,W,1,11,0.94,1109.5848,M,37.0776,M,,*7E
20161107:153948.628
$GPGGA,153949.00,6908.0444201,N,04904.4605554,W,1,11,0.94,1107.4444,M,37.0767,M,,*7F
20161107:153949.629
$GPGGA,153950.00,6908.0352236,N,04904.5535379,W,1,11,0.94,1105.2919,M,37.0759,M,,*77
20161107:153950.628
$GPGGA,153951.00,6908.0260636,N,04904.6466759,W,1,11,0.94,1103.2455,M,37.0750,M,,*7A
20161107:153951.628
$GPGGA,153952.00,6908.0169212,N,04904.7399619,W,1,11,0.94,1100.9384,M,37.0742,M,,*72
20161107:153952.628
$GPGGA,153953.00,6908.0077735,N,04904.8334613,W,1,11,0.94,1097.9500,M,37.0733,M,,*7C
20161107:153953.628
$GPGGA,153954.00,6907.9986046,N,04904.9272796,W,1,11,0.94,1094.5129,M,37.0725,M,,*70
20161107:153954.628
$GPGGA,153955.00,6907.9893955,N,04905.0214474,W,1,11,0.94,1090.7473,M,37.0716,M,,*74
20161107:153955.628
$GPGGA,153956.00,6907.9801213,N,04905.1160161,W,1,11,0.94,1086.7343,M,37.0707,M,,*76
20161107:153956.628
$GPGGA,153957.00,6907.9708007,N,04905.2110354,W,1,11,0.94,1082.7718,M,37.0699,M,,*7E
20161107:153957.628
$GPGGA,153958.00,6907.9614206,N,04905.3064370,W,1,11,0.94,1078.9445,M,37.0690,M,,*72
20161107:153958.628
$GPGGA,153959.00,6907.9520022,N,04905.4021891,W,1,11,0.94,1075.2055,M,37.0681,M,,*72
20161107:153959.628
$GPGGA,154000.00,6907.9425530,N,04905.4982610,W,1,11,0.94,1071.4788,M,37.0673,M,,*7D
20161107:154000.628
$GPGGA,154001.00,6907.9330589,N,04905.5945612,W,1,11,0.94,1067.7330,M,37.0664,M,,*70
20161107:154001.629
$GPGGA,154002.00,6907.9234915,N,04905.6909769,W,1,11,0.94,1063.9604,M,37.0655,M,,*73
20161107:154002.628
$GPGGA,154003.00,6907.9138980,N,04905.7875097,W,1,11,0.94,1060.1236,M,37.0647,M,,*71
20161107:154003.628
$GPGGA,154004.00,6907.9043086,N,04905.8841555,W,1,11,0.94,1056.2507,M,37.0638,M,,*7C
20161107:154004.628
$GPGGA,154005.00,6907.8947545,N,04905.9809540,W,1,11,0.93,1052.4040,M,37.0629,M,,*71
20161107:154005.628
$GPGGA,154006.00,6907.8852723,N,04906.0779395,W,1,11,0.93,1048.5291,M,37.0621,M,,*75
20161107:154006.628
$GPGGA,154007.00,6907.8758449,N,04906.1750953,W,1,11,0.93,1044.6085,M,37.0612,M,,*7C
20161107:154007.628
$GPGGA,154008.00,6907.8664800,N,04906.2724212,W,1,11,0.93,1040.7119,M,37.0603,M,,*73
20161107:154008.628
$GPGGA,154009.00,6907.8572275,N,04906.3699403,W,1,11,0.93,1037.0401,M,37.0595,M,,*79
20161107:154009.629
$GPGGA,154010.00,6907.8480772,N,04906.4675702,W,1,11,0.93,1033.4566,M,37.0586,M,,*7A
20161107:154010.629
$GPGGA,154011.00,6907.8389775,N,04906.5652722,W,1,11,0.93,1030.0646,M,37.0577,M,,*7C
20161107:154011.628
$GPGGA,154012.00,6907.8298792,N,04906.6629421,W,1,11,0.93,1026.6151,M,37.0569,M,,*77
20161107:154012.628
$GPGGA,154013.00,6907.8208115,N,04906.7605391,W,1,11,0.93,1023.1142,M,37.0560,M,,*7C
20161107:154013.628
$GPGGA,154014.00,6907.8117310,N,04906.8579805,W,1,11,0.93,1019.5819,M,37.0551,M,,*78
20161107:154014.628
$GPGGA,154015.00,6907.8026431,N,04906.9552557,W,1,11,0.93,1015.9832,M,37.0543,M,,*76
20161107:154015.628
$GPGGA,154016.00,6907.7935655,N,04907.0523986,W,1,11,0.93,1012.3956,M,37.0534,M,,*71
20161107:154016.628
$GPGGA,154017.00,6907.7844974,N,04907.1494047,W,1,11,0.93,1008.7940,M,37.0526,M,,*78
20161107:154017.628
$GPGGA,154018.00,6907.7754347,N,04907.2462548,W,1,11,0.93,1005.3648,M,37.0517,M,,*7F
20161107:154018.629
$GPGGA,154019.00,6907.7663822,N,04907.3429189,W,1,11,0.93,1002.3232,M,37.0509,M,,*75
20161107:154019.627
$GPGGA,154020.00,6907.7573436,N,04907.4393258,W,1,11,0.93,999.4472,M,37.0500,M,,*4C
20161107:154020.627
$GPGGA,154021.00,6907.7483434,N,04907.5354545,W,1,11,0.93,996.8673,M,37.0492,M,,*4A
20161107:154021.627
$GPGGA,154022.00,6907.7393643,N,04907.6312265,W,1,11,0.93,994.6745,M,37.0484,M,,*46
20161107:154022.627
$GPGGA,154023.00,6907.7304300,N,04907.7265635,W,1,11,0.93,992.6513,M,37.0475,M,,*43
20161107:154023.627
$GPGGA,154024.00,6907.7215218,N,04907.8214596,W,1,11,0.93,990.7145,M,37.0467,M,,*49
20161107:154024.627
$GPGGA,154025.00,6907.7126713,N,04907.9159102,W,1,11,0.93,988.8487,M,37.0459,M,,*47
20161107:154025.627
$GPGGA,154026.00,6907.7038789,N,04908.0099190,W,1,11,0.93,987.1058,M,37.0451,M,,*41
20161107:154026.627
$GPGGA,154027.00,6907.6951516,N,04908.1034491,W,1,11,0.93,985.4712,M,37.0443,M,,*4C
20161107:154027.627
$GPGGA,154028.00,6907.6864832,N,04908.1964390,W,1,11,0.93,984.1622,M,37.0434,M,,*43
20161107:154028.627
$GPGGA,154029.00,6907.6779206,N,04908.2889019,W,1,11,0.93,982.9995,M,37.0426,M,,*41
20161107:154029.627
$GPGGA,154030.00,6907.6694768,N,04908.3808446,W,1,11,0.93,981.8909,M,37.0419,M,,*4B
20161107:154030.627
$GPGGA,154031.00,6907.6611380,N,04908.4722709,W,1,11,0.93,980.7016,M,37.0411,M,,*4C
20161107:154031.627
$GPGGA,154032.00,6907.6528950,N,04908.5631984,W,1,11,0.93,979.4411,M,37.0403,M,,*4D
20161107:154032.627
$GPGGA,154033.00,6907.6447577,N,04908.6536673,W,1,11,0.93,978.0817,M,37.0395,M,,*4A
20161107:154033.627
$GPGGA,154034.00,6907.6367050,N,04908.7437550,W,1,11,0.93,976.3527,M,37.0387,M,,*4B
20161107:154034.627
$GPGGA,154035.00,6907.6287205,N,04908.8335660,W,1,11,0.93,973.9799,M,37.0380,M,,*42
20161107:154035.627
$GPGGA,154036.00,6907.6207810,N,04908.9232214,W,1,11,0.93,971.1014,M,37.0372,M,,*42
20161107:154036.627
$GPGGA,154037.00,6907.6128840,N,04909.0128036,W,1,11,0.93,967.9379,M,37.0365,M,,*4B
20161107:154037.627
$GPGGA,154038.00,6907.6050333,N,04909.1023894,W,1,11,0.93,964.6900,M,37.0357,M,,*47
20161107:154038.627
$GPGGA,154039.00,6907.5972267,N,04909.1919762,W,1,11,0.93,961.3884,M,37.0349,M,,*48
20161107:154039.627
$GPGGA,154040.00,6907.5894485,N,04909.2815483,W,1,11,0.93,958.0767,M,37.0342,M,,*47
20161107:154040.627
$GPGGA,154041.00,6907.5816838,N,04909.3710880,W,1,11,0.93,954.7199,M,37.0334,M,,*4F
20161107:154041.627
$GPGGA,154042.00,6907.5739281,N,04909.4605817,W,1,11,0.93,951.2935,M,37.0327,M,,*46
20161107:154042.628
$GPGGA,154043.00,6907.5661670,N,04909.5500282,W,1,11,0.93,947.8275,M,37.0319,M,,*4F
20161107:154043.628
$GPGGA,154044.00,6907.5583895,N,04909.6394117,W,1,11,0.93,944.3934,M,37.0312,M,,*48
20161107:154044.627
$GPGGA,154045.00,6907.5505770,N,04909.7286870,W,1,11,0.93,941.0117,M,37.0304,M,,*40
20161107:154045.627
$GPGGA,154046.00,6907.5427270,N,04909.8178508,W,1,11,0.93,937.7280,M,37.0297,M,,*48
20161107:154046.627
$GPGGA,154047.00,6907.5348167,N,04909.9068790,W,1,11,0.93,934.3935,M,37.0289,M,,*4D
20161107:154047.627
$GPGGA,154048.00,6907.5268388,N,04909.9957669,W,1,11,0.93,931.0353,M,37.0282,M,,*47
20161107:154048.627
$GPGGA,154049.00,6907.5187942,N,04910.0845141,W,1,11,0.93,927.6550,M,37.0274,M,,*4B
20161107:154049.627
$GPGGA,154050.00,6907.5106961,N,04910.1731591,W,1,11,0.93,924.2602,M,37.0267,M,,*4E
20161107:154050.627
$GPGGA,154051.00,6907.5025574,N,04910.2617255,W,1,11,0.93,920.9361,M,37.0260,M,,*46
20161107:154051.628
$GPGGA,154052.00,6907.4943473,N,04910.3501932,W,1,11,0.93,917.5204,M,37.0252,M,,*4F
20161107:154052.627
$GPGGA,154053.00,6907.4860696,N,04910.4386190,W,1,11,0.93,913.6739,M,37.0245,M,,*43
20161107:154053.627
$GPGGA,154054.00,6907.4777503,N,04910.5272141,W,1,11,0.93,909.6522,M,37.0238,M,,*4C
20161107:154054.627
$GPGGA,154055.00,6907.4692887,N,04910.6161193,W,1,11,0.93,905.5047,M,37.0230,M,,*4A
20161107:154055.627
$GPGGA,154056.00,6907.4606364,N,04910.7051997,W,1,11,0.93,901.4218,M,37.0223,M,,*42
20161107:154056.628
$GPGGA,154057.00,6907.4518311,N,04910.7943676,W,1,11,0.93,898.2836,M,37.0215,M,,*43
20161107:154057.628
$GPGGA,154058.00,6907.4429344,N,04910.8833607,W,1,11,0.93,896.3465,M,37.0208,M,,*49
20161107:154058.627
$GPGGA,154059.00,6907.4340318,N,04910.9719864,W,1,11,0.93,895.3135,M,37.0201,M,,*4E
20161107:154059.627
$GPGGA,154100.00,6907.4251728,N,04911.0601498,W,1,11,0.93,894.6617,M,37.0193,M,,*41
20161107:154100.627
$GPGGA,154101.00,6907.4163729,N,04911.1478506,W,1,11,0.93,894.0767,M,37.0186,M,,*4C
20161107:154101.627
$GPGGA,154102.00,6907.4076829,N,04911.2351913,W,1,11,0.93,893.4116,M,37.0179,M,,*41
20161107:154102.627
$GPGGA,154103.00,6907.3990893,N,04911.3222091,W,1,11,0.93,892.6124,M,37.0172,M,,*49
20161107:154103.627
$GPGGA,154104.00,6907.3905858,N,04911.4089461,W,1,11,0.93,891.6520,M,37.0164,M,,*4E
20161107:154104.627
$GPGGA,154105.00,6907.3821668,N,04911.4954248,W,1,11,0.93,890.6002,M,37.0157,M,,*45
20161107:154105.628
$GPGGA,154106.00,6907.3738167,N,04911.5816588,W,1,11,0.93,889.4798,M,37.0150,M,,*4D
20161107:154106.627
$GPGGA,154107.00,6907.3655358,N,04911.6676577,W,1,11,0.93,888.3118,M,37.0143,M,,*49
20161107:154107.628
$GPGGA,154108.00,6907.3573202,N,04911.7534323,W,1,11,0.93,887.1807,M,37.0136,M,,*44
20161107:154108.627
$GPGGA,154109.00,6907.3491793,N,04911.8390207,W,1,11,0.93,886.0054,M,37.0129,M,,*45
20161107:154109.627
$GPGGA,154110.00,6907.3411181,N,04911.9245368,W,1,11,0.93,884.7738,M,37.0122,M,,*43
20161107:154110.628
$GPGGA,154111.00,6907.3331094,N,04912.0101871,W,1,11,0.93,883.5456,M,37.0115,M,,*42
20161107:154111.627
$GPGGA,154112.00,6907.3251335,N,04912.0960581,W,1,11,0.93,882.3932,M,37.0108,M,,*47
20161107:154112.627
$GPGGA,154113.00,6907.3171298,N,04912.1821250,W,1,11,0.93,881.3436,M,37.0101,M,,*4C
20161107:154113.627
$GPGGA,154114.00,6907.3090825,N,04912.2683652,W,1,11,0.93,880.4106,M,37.0095,M,,*46
20161107:154114.628
$GPGGA,154115.00,6907.3009482,N,04912.3547025,W,1,11,0.93,879.5148,M,37.0088,M,,*4B
20161107:154115.628
$GPGGA,154116.00,6907.2927037,N,04912.4410652,W,1,11,0.93,878.6325,M,37.0081,M,,*46
20161107:154116.628
$GPGGA,154117.00,6907.2843987,N,04912.5274365,W,1,11,0.93,878.0301,M,37.0074,M,,*48
20161107:154117.627
$GPGGA,154118.00,6907.2760804,N,04912.6137584,W,1,11,0.93,877.9642,M,37.0067,M,,*4B
20161107:154118.627
$GPGGA,154119.00,6907.2677980,N,04912.6999899,W,1,11,0.93,878.1598,M,37.0060,M,,*49
20161107:154119.627
$GPGGA,154120.00,6907.2595975,N,04912.7861504,W,1,11,0.93,878.5668,M,37.0053,M,,*40
20161107:154120.627
$GPGGA,154121.00,6907.2514829,N,04912.8722458,W,1,11,0.93,879.0391,M,37.0046,M,,*4C
20161107:154121.627
$GPGGA,154122.00,6907.2434720,N,04912.9582845,W,1,11,0.93,879.5954,M,37.0039,M,,*4D
20161107:154122.627
$GPGGA,154123.00,6907.2355512,N,04913.0442591,W,1,11,0.93,880.1913,M,37.0032,M,,*44
20161107:154123.628
$GPGGA,154124.00,6907.2277184,N,04913.1301521,W,1,11,0.93,880.7564,M,37.0025,M,,*4F
20161107:154124.628
$GPGGA,154125.00,6907.2199839,N,04913.2159963,W,1,11,0.93,881.3786,M,37.0019,M,,*40
20161107:154125.629
$GPGGA,154126.00,6907.2122979,N,04913.3017652,W,1,11,0.93,882.0850,M,37.0012,M,,*4E
20161107:154126.627
$GPGGA,154127.00,6907.2046216,N,04913.3874352,W,1,11,0.93,882.6001,M,37.0005,M,,*4A
20161107:154127.628
$GPGGA,154128.00,6907.1969427,N,04913.4731081,W,1,11,0.93,882.5648,M,36.9998,M,,*4F
20161107:154128.627
$GPGGA,154129.00,6907.1892481,N,04913.5588893,W,1,11,0.93,882.0245,M,36.9992,M,,*4B
20161107:154129.627
$GPGGA,154130.00,6907.1815237,N,04913.6448316,W,1,11,0.93,881.1535,M,36.9985,M,,*4B
20161107:154130.628
$GPGGA,154131.00,6907.1737783,N,04913.7309570,W,1,11,0.93,880.1100,M,36.9978,M,,*4B
20161107:154131.628
$GPGGA,154132.00,6907.1659637,N,04913.8172241,W,1,11,0.93,879.0344,M,36.9971,M,,*47
20161107:154132.628
$GPGGA,154133.00,6907.1580687,N,04913.9035787,W,1,11,0.93,877.9204,M,36.9965,M,,*41
20161107:154133.627
$GPGGA,154134.00,6907.1501106,N,04913.9899939,W,1,11,0.93,877.0679,M,36.9958,M,,*4D
20161107:154134.627
$GPGGA,154135.00,6907.1421438,N,04914.0763769,W,1,11,0.93,876.8537,M,36.9951,M,,*41
20161107:154135.627
$GPGGA,154136.00,6907.1341934,N,04914.1626587,W,1,11,0.93,877.2716,M,36.9944,M,,*4F
20161107:154136.627
$GPGGA,154137.00,6907.1262894,N,04914.2487825,W,1,11,0.93,877.9959,M,36.9938,M,,*4F
20161107:154137.628
$GPGGA,154138.00,6907.1184616,N,04914.3347518,W,1,11,0.93,878.7986,M,36.9931,M,,*4C
20161107:154138.628
$GPGGA,154139.00,6907.1107466,N,04914.4205641,W,1,11,0.93,879.5895,M,36.9924,M,,*48
20161107:154139.628
$GPGGA,154140.00,6907.1031394,N,04914.5062531,W,1,11,0.93,880.5678,M,36.9918,M,,*4A
20161107:154140.628
$GPGGA,154141.00,6907.0956638,N,04914.5918546,W,1,11,0.93,881.5366,M,36.9911,M,,*47
20161107:154141.628
$GPGGA,154142.00,6907.0883240,N,04914.6773818,W,1,11,0.93,882.3913,M,36.9905,M,,*48
20161107:154142.627
$GPGGA,154143.00,6907.0811035,N,04914.7628363,W,1,11,0.93,883.1574,M,36.9898,M,,*40
20161107:154143.628
$GPGGA,154144.00,6907.0739925,N,04914.8482620,W,1,11,0.93,883.7930,M,36.9891,M,,*46
20161107:154144.627
$GPGGA,154145.00,6907.0669637,N,04914.9337572,W,1,11,0.93,884.0147,M,36.9885,M,,*4E
20161107:154145.627
$GPGGA,154146.00,6907.0599911,N,04915.0193955,W,1,11,0.93,883.9378,M,36.9878,M,,*45
20161107:154146.628
$GPGGA,154147.00,6907.0530588,N,04915.1051987,W,1,11,0.93,883.6793,M,36.9872,M,,*4E
20161107:154147.628
$GPGGA,154148.00,6907.0461264,N,04915.1911959,W,1,11,0.93,883.1046,M,36.9865,M,,*41
20161107:154148.628
$GPGGA,154149.00,6907.0391600,N,04915.2774267,W,1,11,0.93,882.3452,M,36.9859,M,,*4B
20161107:154149.628
$GPGGA,154150.00,6907.0321506,N,04915.3639057,W,1,11,0.93,881.4940,M,36.9852,M,,*44
20161107:154150.627
$GPGGA,154151.00,6907.0250980,N,04915.4506596,W,1,11,0.93,880.5879,M,36.9846,M,,*4E
20161107:154151.628
$GPGGA,154152.00,6907.0179729,N,04915.5376488,W,1,11,0.93,879.7217,M,36.9839,M,,*48
20161107:154152.627
$GPGGA,154153.00,6907.0107749,N,04915.6248744,W,1,11,0.93,878.9253,M,36.9833,M,,*4F
20161107:154153.628
$GPGGA,154154.00,6907.0035024,N,04915.7122955,W,1,11,0.93,878.1384,M,36.9826,M,,*43
20161107:154154.628
$GPGGA,154155.00,6906.9961206,N,04915.7998622,W,1,11,0.93,877.4545,M,36.9820,M,,*41
20161107:154155.628
$GPGGA,154156.00,6906.9886115,N,04915.8875194,W,1,11,0.93,876.7980,M,36.9813,M,,*4B
20161107:154156.628
$GPGGA,154157.00,6906.9809647,N,04915.9752370,W,1,11,0.92,876.1825,M,36.9806,M,,*43
20161107:154157.628
$GPGGA,154158.00,6906.9731597,N,04916.0629442,W,1,11,0.92,875.5532,M,36.9800,M,,*4D
20161107:154158.627
$GPGGA,154159.00,6906.9651961,N,04916.1506369,W,1,11,0.92,874.9197,M,36.9793,M,,*4C
20161107:154159.627
$GPGGA,154200.00,6906.9570803,N,04916.2383529,W,1,11,0.92,874.2832,M,36.9787,M,,*44
20161107:154200.627
$GPGGA,154201.00,6906.9488452,N,04916.3261282,W,1,11,0.92,873.5657,M,36.9780,M,,*4B
20161107:154201.628
$GPGGA,154202.00,6906.9404822,N,04916.4141077,W,1,10,0.97,872.9668,M,36.9773,M,,*40
20161107:154202.628
$GPGGA,154203.00,6906.9320572,N,04916.5020936,W,1,10,0.97,871.9763,M,36.9767,M,,*4F
20161107:154203.628
$GPGGA,154204.00,6906.9235753,N,04916.5902514,W,1,10,0.97,870.8302,M,36.9760,M,,*4D
20161107:154204.628
$GPGGA,154205.00,6906.9150409,N,04916.6786209,W,1,10,0.97,869.4653,M,36.9754,M,,*48
20161107:154205.628
$GPGGA,154206.00,6906.9064786,N,04916.7673044,W,1,10,0.97,867.8755,M,36.9747,M,,*4F
20161107:154206.627
$GPGGA,154207.00,6906.8978978,N,04916.8563778,W,1,10,0.97,865.9538,M,36.9740,M,,*4C
20161107:154207.627
$GPGGA,154208.00,6906.8893211,N,04916.9459646,W,1,10,0.97,863.7232,M,36.9734,M,,*40
20161107:154208.628
$GPGGA,154209.00,6906.8807696,N,04917.0361143,W,1,10,0.97,861.4320,M,36.9727,M,,*40
20161107:154209.628
$GPGGA,154210.00,6906.8722643,N,04917.1268437,W,1,10,0.97,859.1795,M,36.9720,M,,*44
20161107:154210.628
$GPGGA,154211.00,6906.8638264,N,04917.2181372,W,1,10,0.97,856.9755,M,36.9714,M,,*43
20161107:154211.628
$GPGGA,154212.00,6906.8554505,N,04917.3099746,W,1,10,0.97,854.8062,M,36.9707,M,,*41
20161107:154212.628
$GPGGA,154213.00,6906.8471207,N,04917.4022757,W,1,10,0.97,852.6639,M,36.9700,M,,*43
20161107:154213.628
$GPGGA,154214.00,6906.8387823,N,04917.4950034,W,1,10,0.97,850.4788,M,36.9693,M,,*48
20161107:154214.627
$GPGGA,154215.00,6906.8304054,N,04917.5880770,W,1,10,0.97,848.1626,M,36.9687,M,,*4C
20161107:154215.627
$GPGGA,154216.00,6906.8219478,N,04917.6814879,W,1,10,0.97,845.9221,M,36.9680,M,,*41
20161107:154216.627
$GPGGA,154217.00,6906.8134270,N,04917.7751681,W,1,10,0.97,843.7064,M,36.9673,M,,*43
20161107:154217.627
